{"displayFieldName":"stopname","fieldAliases":{"stopid":"stopid","stopname":"stopname","stoptype":"stoptype","status":"status","location":"location","suburb":"suburb"},"geometryType":"esriGeometryPoint","spatialReference":{"wkid":4326,"latestWkid":4326},"fields":[{"name":"stopid","type":"esriFieldTypeInteger","alias":"stopid"},{"name":"stopname","type":"esriFieldTypeString","alias":"stopname","length":200},{"name":"stoptype","type":"esriFieldTypeString","alias":"stoptype","length":25},{"name":"status","type":"esriFieldTypeString","alias":"status","length":25},{"name":"location","type":"esriFieldTypeString","alias":"location","length":200},{"name":"suburb","type":"esriFieldTypeString","alias":"suburb","length":100}],"features":[{"attributes":{"stopid":34356,"stopname":"Adie Ct After Hayman Rd","stoptype":"Standard","status":"Active","location":null,"suburb":"BENTLEY"},"geometry":{"x":115.89769116317102,"y":-32.00373729100825}},{"attributes":{"stopid":9233,"stopname":"Adie Ct Before Hayman Rd","stoptype":"Standard","status":"Active","location":null,"suburb":"BENTLEY"},"geometry":{"x":115.8975274171712,"y":-32.003892219008186}},{"attributes":{"stopid":10537,"stopname":"Adie Ct Swan Cottage Homes","stoptype":"Standard","status":"Active","location":null,"suburb":"BENTLEY"},"geometry":{"x":115.89896608517019,"y":-32.003132161008757}},{"attributes":{"stopid":12664,"stopname":"Adie Ct Swan Cottage Homes","stoptype":"Standard","status":"Active","location":null,"suburb":"BENTLEY"},"geometry":{"x":115.89891118117005,"y":-32.003029382008798}},{"attributes":{"stopid":11434,"stopname":"Curtin University Bus Stn Stand 1","stoptype":"Standard","status":"Active","location":"Curtin University Bus Stn","suburb":"BENTLEY"},"geometry":{"x":115.89722945417238,"y":-32.005759991007565}},{"attributes":{"stopid":11435,"stopname":"Curtin University Bus Stn Stand 2","stoptype":"Standard","status":"Active","location":"Curtin University Bus Stn","suburb":"BENTLEY"},"geometry":{"x":115.89735556617231,"y":-32.005851102007576}},{"attributes":{"stopid":11436,"stopname":"Curtin University Bus Stn Stand 3","stoptype":"Standard","status":"Active","location":"Curtin University Bus Stn","suburb":"BENTLEY"},"geometry":{"x":115.89748112117229,"y":-32.005969435007579}},{"attributes":{"stopid":11437,"stopname":"Curtin University Bus Stn Stand 4","stoptype":"Standard","status":"Active","location":"Curtin University Bus Stn","suburb":"BENTLEY"},"geometry":{"x":115.89761667717238,"y":-32.006142213007521}},{"attributes":{"stopid":34102,"stopname":"Hayman Rd After Adie Ct","stoptype":"Standard","status":"Active","location":null,"suburb":"BENTLEY"},"geometry":{"x":115.89595501017155,"y":-32.003430547007923}},{"attributes":{"stopid":29513,"stopname":"Hayman Rd After Brodie-Hall Dr","stoptype":"Standard","status":"Active","location":"Technology Park","suburb":"BENTLEY"},"geometry":{"x":115.89110414717065,"y":-31.998220782008218}},{"attributes":{"stopid":24620,"stopname":"Hayman Rd After Kent St","stoptype":"Standard","status":"Active","location":null,"suburb":"BENTLEY"},"geometry":{"x":115.88838389917152,"y":-31.997901102007681}},{"attributes":{"stopid":9322,"stopname":"Hayman Rd After Marquis St","stoptype":"Standard","status":"Active","location":null,"suburb":"BENTLEY"},"geometry":{"x":115.89954103717233,"y":-32.007450732007626}},{"attributes":{"stopid":11247,"stopname":"Hayman Rd Before Adie Ct","stoptype":"Standard","status":"Active","location":null,"suburb":"BENTLEY"},"geometry":{"x":115.89580750117106,"y":-32.002548318008131}},{"attributes":{"stopid":24625,"stopname":"Hayman Rd Before Brodie-Hall Dr","stoptype":"Standard","status":"Active","location":"Technology Park","suburb":"BENTLEY"},"geometry":{"x":115.89112045217072,"y":-31.998341547008206}},{"attributes":{"stopid":24621,"stopname":"Hayman Rd Before Kent St","stoptype":"Standard","status":"Active","location":null,"suburb":"BENTLEY"},"geometry":{"x":115.88830334317171,"y":-31.998042769007622}},{"attributes":{"stopid":9235,"stopname":"Hayman Rd Before Marquis St","stoptype":"Standard","status":"Active","location":null,"suburb":"BENTLEY"},"geometry":{"x":115.89957606917223,"y":-32.00731936900771}},{"attributes":{"stopid":34104,"stopname":"Hayman Rd Bentley Tafe","stoptype":"Standard","status":"Active","location":null,"suburb":"BENTLEY"},"geometry":{"x":115.89504965517052,"y":-32.000908622008424}},{"attributes":{"stopid":23403,"stopname":"Hayman Rd Bentley Tafe","stoptype":"Standard","status":"Active","location":null,"suburb":"BENTLEY"},"geometry":{"x":115.89474889917052,"y":-32.000731658008412}},{"attributes":{"stopid":11430,"stopname":"Hayman Rd Stand 5","stoptype":"Standard","status":"Active","location":"Curtin University Bus Stn","suburb":"BENTLEY"},"geometry":{"x":115.89767056617221,"y":-32.00586999100765}},{"attributes":{"stopid":11431,"stopname":"Hayman Rd Stand 6","stoptype":"Standard","status":"Active","location":"Curtin University Bus Stn","suburb":"BENTLEY"},"geometry":{"x":115.89752667717221,"y":-32.005728880007638}},{"attributes":{"stopid":11432,"stopname":"Hayman Rd Stand 7","stoptype":"Standard","status":"Active","location":"Curtin University Bus Stn","suburb":"BENTLEY"},"geometry":{"x":115.89736612117224,"y":-32.005597769007665}},{"attributes":{"stopid":11433,"stopname":"Hayman Rd Stand 8","stoptype":"Standard","status":"Active","location":"Curtin University Bus Stn","suburb":"BENTLEY"},"geometry":{"x":115.89721089117219,"y":-32.005489363007626}},{"attributes":{"stopid":9881,"stopname":"Jackson Rd After Kent St","stoptype":"Standard","status":"Active","location":null,"suburb":"KARAWARA"},"geometry":{"x":115.88631054817606,"y":-32.004374402005283}},{"attributes":{"stopid":5413,"stopname":"Jackson Rd Before Kent St","stoptype":"Standard","status":"Active","location":null,"suburb":"COMO"},"geometry":{"x":115.88683389917561,"y":-32.004026186005504}},{"attributes":{"stopid":5393,"stopname":"Jarrah Rd After Cadden St","stoptype":"Standard","status":"Active","location":null,"suburb":"EAST VICTORIA PARK"},"geometry":{"x":115.89735892816834,"y":-31.998828812009609}},{"attributes":{"stopid":5416,"stopname":"Jarrah Rd After Pallitt St","stoptype":"Standard","status":"Active","location":null,"suburb":"BENTLEY"},"geometry":{"x":115.89968945416864,"y":-32.001018324009515}},{"attributes":{"stopid":22431,"stopname":"Jarrah Rd After Pinedale St","stoptype":"Standard","status":"Active","location":null,"suburb":"EAST VICTORIA PARK"},"geometry":{"x":115.89830778816858,"y":-31.999719991009584}},{"attributes":{"stopid":31117,"stopname":"Jarrah Rd Before Pallitt St","stoptype":"Standard","status":"Active","location":null,"suburb":"EAST VICTORIA PARK"},"geometry":{"x":115.89913556616851,"y":-32.000399991009566}},{"attributes":{"stopid":23397,"stopname":"Jarrah Rd Before Pinedale St","stoptype":"Standard","status":"Active","location":null,"suburb":"BENTLEY"},"geometry":{"x":115.89806501016859,"y":-31.999623880009537}},{"attributes":{"stopid":34108,"stopname":"Kent St After Beasley Av","stoptype":"Standard","status":"Active","location":null,"suburb":"BENTLEY"},"geometry":{"x":115.88819723217738,"y":-32.008228880004651}},{"attributes":{"stopid":33879,"stopname":"Kent St After Hayman Rd","stoptype":"Standard","status":"Active","location":null,"suburb":"BENTLEY"},"geometry":{"x":115.88688167717294,"y":-31.999297769006901}},{"attributes":{"stopid":5338,"stopname":"Kent St After Jackson Rd","stoptype":"Standard","status":"Active","location":null,"suburb":"COMO"},"geometry":{"x":115.88727945417432,"y":-32.00194276900622}},{"attributes":{"stopid":34106,"stopname":"Kent St After Jackson Rd","stoptype":"Standard","status":"Active","location":null,"suburb":"BENTLEY"},"geometry":{"x":115.88833223217544,"y":-32.004839991005653}},{"attributes":{"stopid":24579,"stopname":"Kent St Before Beasley Av","stoptype":"Standard","status":"Active","location":null,"suburb":"KARAWARA"},"geometry":{"x":115.88804723217721,"y":-32.007722213004783}},{"attributes":{"stopid":5339,"stopname":"Kent St Before Hayman Rd","stoptype":"Standard","status":"Active","location":null,"suburb":"COMO"},"geometry":{"x":115.88663864917302,"y":-31.999291531006843}},{"attributes":{"stopid":24580,"stopname":"Kent St Before Jackson Rd","stoptype":"Standard","status":"Active","location":null,"suburb":"KARAWARA"},"geometry":{"x":115.88794001017544,"y":-32.004550547005664}},{"attributes":{"stopid":34889,"stopname":"Lawson St After Beveridge St","stoptype":"Standard","status":"Active","location":null,"suburb":"BENTLEY"},"geometry":{"x":115.90076263917338,"y":-32.010354367007089}},{"attributes":{"stopid":5553,"stopname":"Lawson St After Farnham St","stoptype":"Standard","status":"Active","location":"Lawson St / Farnham St","suburb":"BENTLEY"},"geometry":{"x":115.90045997317455,"y":-32.012022807006545}},{"attributes":{"stopid":34887,"stopname":"Lawson St After Marquis St","stoptype":"Standard","status":"Active","location":null,"suburb":"BENTLEY"},"geometry":{"x":115.90082758217268,"y":-32.009173741007459}},{"attributes":{"stopid":34885,"stopname":"Lawson St Before Beveridge St","stoptype":"Standard","status":"Active","location":null,"suburb":"BENTLEY"},"geometry":{"x":115.90054855517354,"y":-32.010323618007035}},{"attributes":{"stopid":5546,"stopname":"Lawson St Before Farnham St","stoptype":"Standard","status":"Active","location":"Lawson St / Farnham St","suburb":"BENTLEY"},"geometry":{"x":115.90067108417449,"y":-32.012180677006548}},{"attributes":{"stopid":25721,"stopname":"Manning Rd After Drogheda Wy","stoptype":"Standard","status":"Active","location":null,"suburb":"BENTLEY"},"geometry":{"x":115.89059334317895,"y":-32.01276499100392}},{"attributes":{"stopid":25722,"stopname":"Manning Rd Before Drogheda Wy","stoptype":"Standard","status":"Active","location":null,"suburb":"WATERFORD"},"geometry":{"x":115.89097889917893,"y":-32.013026658003945}},{"attributes":{"stopid":5396,"stopname":"Manning Rd Before Townsing Dr","stoptype":"Standard","status":"Active","location":null,"suburb":"WATERFORD"},"geometry":{"x":115.89425305317776,"y":-32.013413302004636}},{"attributes":{"stopid":5459,"stopname":"Manning Rd Before Townsing Dr","stoptype":"Standard","status":"Active","location":null,"suburb":"BENTLEY"},"geometry":{"x":115.89356248317796,"y":-32.013132612004547}},{"attributes":{"stopid":22433,"stopname":"Pinedale St After Etwell St","stoptype":"Standard","status":"Active","location":null,"suburb":"EAST VICTORIA PARK"},"geometry":{"x":115.89917791716736,"y":-31.998273967010181}},{"attributes":{"stopid":34078,"stopname":"Pinedale St After Jarrah Rd","stoptype":"Standard","status":"Active","location":null,"suburb":"EAST VICTORIA PARK"},"geometry":{"x":115.89839106816795,"y":-31.99881650900986}},{"attributes":{"stopid":5400,"stopname":"Walanna Dr After Lowan Loop","stoptype":"Standard","status":"Active","location":null,"suburb":"KARAWARA"},"geometry":{"x":115.88695928417735,"y":-32.007126748004687}},{"attributes":{"stopid":5411,"stopname":"Walanna Dr Before Lowan Loop Nth","stoptype":"Standard","status":"Active","location":null,"suburb":"KARAWARA"},"geometry":{"x":115.88678818617757,"y":-32.007435992004552}}]}